[
  {
    "id": "unimelb",
    "name": "University of Melbourne",
    "nameZh": "墨尔本大学",
    "shortName": "UniMelb",
    "shortNameZh": "墨大",
    "country": "australia",
    "city": "Melbourne",
    "website": "https://www.unimelb.edu.au",
    "ranking": 33,
    "coordinates": [144.9631, -37.7963]
  },
  {
    "id": "usyd",
    "name": "University of Sydney",
    "nameZh": "悉尼大学",
    "shortName": "USyd",
    "shortNameZh": "悉大",
    "country": "australia",
    "city": "Sydney",
    "website": "https://www.sydney.edu.au",
    "ranking": 41,
    "coordinates": [151.1872, -33.8882]
  },
  {
    "id": "unsw",
    "name": "UNSW Sydney",
    "nameZh": "新南威尔士大学",
    "shortName": "UNSW",
    "shortNameZh": "新南威",
    "country": "australia",
    "city": "Sydney",
    "website": "https://www.unsw.edu.au",
    "ranking": 45,
    "coordinates": [151.2313, -33.9173]
  },
  {
    "id": "monash",
    "name": "Monash University",
    "nameZh": "莫纳什大学",
    "shortName": "Monash",
    "shortNameZh": "莫纳什",
    "country": "australia",
    "city": "Melbourne",
    "website": "https://www.monash.edu",
    "ranking": 57,
    "coordinates": [145.1312, -37.9105]
  },
  {
    "id": "uq",
    "name": "University of Queensland",
    "nameZh": "昆士兰大学",
    "shortName": "UQ",
    "shortNameZh": "昆大",
    "country": "australia",
    "city": "Brisbane",
    "website": "https://www.uq.edu.au",
    "ranking": 40,
    "coordinates": [153.0130, -27.4975]
  },
  {
    "id": "anu",
    "name": "Australian National University",
    "nameZh": "澳大利亚国立大学",
    "shortName": "ANU",
    "shortNameZh": "国立大",
    "country": "australia",
    "city": "Canberra",
    "website": "https://www.anu.edu.au",
    "ranking": 34,
    "coordinates": [149.1193, -35.2777]
  },
  {
    "id": "qut",
    "name": "Queensland University of Technology",
    "nameZh": "昆士兰科技大学",
    "shortName": "QUT",
    "shortNameZh": "昆科大",
    "country": "australia",
    "city": "Brisbane",
    "website": "https://www.qut.edu.au",
    "ranking": 197,
    "coordinates": [153.0234, -27.4778]
  },
  {
    "id": "uadelaide",
    "name": "University of Adelaide",
    "nameZh": "阿德莱德大学",
    "shortName": "UAdel",
    "shortNameZh": "阿大",
    "country": "australia",
    "city": "Adelaide",
    "website": "https://www.adelaide.edu.au",
    "ranking": 89,
    "coordinates": [138.6035, -34.9205]
  },
  {
    "id": "rmit",
    "name": "RMIT University",
    "nameZh": "皇家墨尔本理工大学",
    "shortName": "RMIT",
    "shortNameZh": "皇理工",
    "country": "australia",
    "city": "Melbourne",
    "website": "https://www.rmit.edu.au",
    "ranking": 140,
    "coordinates": [144.9632, -37.8082]
  },
  {
    "id": "uwa",
    "name": "University of Western Australia",
    "nameZh": "西澳大学",
    "shortName": "UWA",
    "shortNameZh": "西澳大",
    "country": "australia",
    "city": "Perth",
    "website": "https://www.uwa.edu.au",
    "ranking": 90,
    "coordinates": [115.8173, -31.9800]
  },
  {
    "id": "curtin",
    "name": "Curtin University",
    "nameZh": "科廷大学",
    "shortName": "Curtin",
    "shortNameZh": "科廷",
    "country": "australia",
    "city": "Perth",
    "website": "https://www.curtin.edu.au",
    "ranking": 185,
    "coordinates": [115.8944, -32.0054]
  },
  {
    "id": "deakin",
    "name": "Deakin University",
    "nameZh": "迪肯大学",
    "shortName": "Deakin",
    "shortNameZh": "迪肯",
    "country": "australia",
    "city": "Melbourne",
    "website": "https://www.deakin.edu.au",
    "ranking": 266,
    "coordinates": [144.9475, -37.8474]
  },
  {
    "id": "uts",
    "name": "University of Technology Sydney",
    "nameZh": "悉尼科技大学",
    "shortName": "UTS",
    "shortNameZh": "悉科大",
    "country": "australia",
    "city": "Sydney",
    "website": "https://www.uts.edu.au",
    "ranking": 148,
    "coordinates": [151.2003, -33.8833]
  },
  {
    "id": "unisa",
    "name": "University of South Australia",
    "nameZh": "南澳大学",
    "shortName": "UniSA",
    "shortNameZh": "南澳大",
    "country": "australia",
    "city": "Adelaide",
    "website": "https://www.unisa.edu.au",
    "ranking": 287,
    "coordinates": [138.5986, -34.9285]
  },
  {
    "id": "griffith",
    "name": "Griffith University",
    "nameZh": "格里菲斯大学",
    "shortName": "Griffith",
    "shortNameZh": "格里菲斯",
    "country": "australia",
    "city": "Brisbane",
    "website": "https://www.griffith.edu.au",
    "ranking": 325,
    "coordinates": [153.0167, -27.5667]
  },
  {
    "id": "latrobe",
    "name": "La Trobe University",
    "nameZh": "拉筹伯大学",
    "shortName": "La Trobe",
    "shortNameZh": "拉筹伯",
    "country": "australia",
    "city": "Melbourne",
    "website": "https://www.latrobe.edu.au",
    "ranking": 401,
    "coordinates": [145.0444, -37.7197]
  },
  {
    "id": "macquarie",
    "name": "Macquarie University",
    "nameZh": "麦考瑞大学",
    "shortName": "Macquarie",
    "shortNameZh": "麦考瑞",
    "country": "australia",
    "city": "Sydney",
    "website": "https://www.mq.edu.au",
    "ranking": 195,
    "coordinates": [151.1094, -33.7738]
  },
  {
    "id": "newcastle",
    "name": "University of Newcastle",
    "nameZh": "纽卡斯尔大学",
    "shortName": "Newcastle",
    "shortNameZh": "纽大",
    "country": "australia",
    "city": "Newcastle",
    "website": "https://www.newcastle.edu.au",
    "ranking": 401,
    "coordinates": [151.7789, -32.8938]
  },
  {
    "id": "uow",
    "name": "University of Wollongong",
    "nameZh": "卧龙岗大学",
    "shortName": "UOW",
    "shortNameZh": "卧龙岗",
    "country": "australia",
    "city": "Wollongong",
    "website": "https://www.uow.edu.au",
    "ranking": 401,
    "coordinates": [150.8793, -34.4060]
  },
  {
    "id": "swinburne",
    "name": "Swinburne University of Technology",
    "nameZh": "斯威本科技大学",
    "shortName": "Swinburne",
    "shortNameZh": "斯威本",
    "country": "australia",
    "city": "Melbourne",
    "website": "https://www.swinburne.edu.au",
    "ranking": 401,
    "coordinates": [145.0386, -37.8225]
  },
  {
    "id": "flinders",
    "name": "Flinders University",
    "nameZh": "弗林德斯大学",
    "shortName": "Flinders",
    "shortNameZh": "弗林德斯",
    "country": "australia",
    "city": "Adelaide",
    "website": "https://www.flinders.edu.au",
    "ranking": 401,
    "coordinates": [138.5697, -35.0217]
  },
  {
    "id": "wsu",
    "name": "Western Sydney University",
    "nameZh": "西悉尼大学",
    "shortName": "WSU",
    "shortNameZh": "西悉尼",
    "country": "australia",
    "city": "Sydney",
    "website": "https://www.westernsydney.edu.au",
    "ranking": 401,
    "coordinates": [150.8578, -33.7275]
  },
  {
    "id": "jcu",
    "name": "James Cook University",
    "nameZh": "詹姆斯库克大学",
    "shortName": "JCU",
    "shortNameZh": "库克大",
    "country": "australia",
    "city": "Townsville",
    "website": "https://www.jcu.edu.au",
    "ranking": 401,
    "coordinates": [146.7579, -19.3286]
  },
  {
    "id": "murdoch",
    "name": "Murdoch University",
    "nameZh": "默多克大学",
    "shortName": "Murdoch",
    "shortNameZh": "默多克",
    "country": "australia",
    "city": "Perth",
    "website": "https://www.murdoch.edu.au",
    "ranking": 601,
    "coordinates": [115.8358, -32.0686]
  },
  {
    "id": "ecu",
    "name": "Edith Cowan University",
    "nameZh": "伊迪丝科文大学",
    "shortName": "ECU",
    "shortNameZh": "伊科文",
    "country": "australia",
    "city": "Perth",
    "website": "https://www.ecu.edu.au",
    "ranking": 601,
    "coordinates": [115.7739, -31.7453]
  },
  {
    "id": "acu",
    "name": "Australian Catholic University",
    "nameZh": "澳大利亚天主教大学",
    "shortName": "ACU",
    "shortNameZh": "天主教大",
    "country": "australia",
    "city": "Melbourne",
    "website": "https://www.acu.edu.au",
    "ranking": 601,
    "coordinates": [144.9731, -37.8001]
  },
  {
    "id": "hku",
    "name": "University of Hong Kong",
    "nameZh": "香港大学",
    "shortName": "HKU",
    "shortNameZh": "港大",
    "country": "hong-kong",
    "city": "Hong Kong",
    "website": "https://www.hku.hk",
    "ranking": 26,
    "coordinates": [114.1375, 22.2839]
  },
  {
    "id": "hkust",
    "name": "Hong Kong University of Science and Technology",
    "nameZh": "香港科技大学",
    "shortName": "HKUST",
    "shortNameZh": "科大",
    "country": "hong-kong",
    "city": "Hong Kong",
    "website": "https://www.ust.hk",
    "ranking": 40,
    "coordinates": [114.2661, 22.3360]
  },
  {
    "id": "cuhk",
    "name": "Chinese University of Hong Kong",
    "nameZh": "香港中文大学",
    "shortName": "CUHK",
    "shortNameZh": "中大",
    "country": "hong-kong",
    "city": "Hong Kong",
    "website": "https://www.cuhk.edu.hk",
    "ranking": 47,
    "coordinates": [114.2098, 22.4197]
  },
  {
    "id": "nus",
    "name": "National University of Singapore",
    "nameZh": "新加坡国立大学",
    "shortName": "NUS",
    "shortNameZh": "国大",
    "country": "singapore",
    "city": "Singapore",
    "website": "https://www.nus.edu.sg",
    "ranking": 8,
    "coordinates": [103.7764, 1.2966]
  },
  {
    "id": "ntu",
    "name": "Nanyang Technological University",
    "nameZh": "南洋理工大学",
    "shortName": "NTU",
    "shortNameZh": "南大",
    "country": "singapore",
    "city": "Singapore",
    "website": "https://www.ntu.edu.sg",
    "ranking": 15,
    "coordinates": [103.6831, 1.3483]
  }
]
